stop_id, stop_name, stop_desc, stop_lat, stop_lon, zone_id, stop_url
GENEVA, Geneva, , 41.8816667, -88.3100000, H, http://metrarail.com/metra/en/home/maps_schedules/metra_system_map/up-w/station.GENEVA.html
WCHICAGO, West Chicago, , 41.8811111, -88.1988889, F, http://metrarail.com/metra/en/home/maps_schedules/metra_system_map/up-w/station.WCHICAGO.html
WINFIELD, Winfield, , 41.8700000, -88.1569444, F, http://metrarail.com/metra/en/home/maps_schedules/metra_system_map/up-w/station.WINFIELD.html
WHEATON, Wheaton, , 41.8644444, -88.1119444, E, http://metrarail.com/metra/en/home/maps_schedules/metra_system_map/up-w/station.WHEATON.html
COLLEGEAVE, College Ave, , 41.8683333, -88.0902778, E, http://metrarail.com/metra/en/home/maps_schedules/metra_system_map/up-w/station.COLLEGEAVE.html
GLENELLYN, Glen Ellyn, , 41.8766667, -88.0647222, E, http://metrarail.com/metra/en/home/maps_schedules/metra_system_map/up-w/station.GLENELLYN.html
LOMBARD, Lombard, , 41.8866667, -88.0186111, D, http://metrarail.com/metra/en/home/maps_schedules/metra_system_map/up-w/station.LOMBARD.html
VILLAPARK, Villa Park, , 41.8963889, -87.9775000, D, http://metrarail.com/metra/en/home/maps_schedules/metra_system_map/up-w/station.VILLAPARK.html
ELMHURST, Elmhurst, , 41.8997222, -87.9408333, D, http://metrarail.com/metra/en/home/maps_schedules/metra_system_map/up-w/station.ELMHURST.html
BERKELEY, Berkeley, , 41.8961111, -87.9152778, C, http://metrarail.com/metra/en/home/maps_schedules/metra_system_map/up-w/station.BERKELEY.html
BELLWOOD, Bellwood, , 41.8913889, -87.8825000, C, http://metrarail.com/metra/en/home/maps_schedules/metra_system_map/up-w/station.BELLWOOD.html
MELROSEPK, Melrose Park, , 41.8902778, -87.8555556, C, http://metrarail.com/metra/en/home/maps_schedules/metra_system_map/up-w/station.MELROSEPK.html
MAYWOOD, Maywood, , 41.8883333, -87.8386111, C, http://metrarail.com/metra/en/home/maps_schedules/metra_system_map/up-w/station.MAYWOOD.html
RIVRFOREST, River Forest, , 41.8869444, -87.8250000, B, http://metrarail.com/metra/en/home/maps_schedules/metra_system_map/up-w/station.RIVRFOREST.html
OAKPARK, Oak Park, , 41.8869444, -87.8011111, B, http://metrarail.com/metra/en/home/maps_schedules/metra_system_map/up-w/station.OAKPARK.html
KEDZIE, Kedzie, , 41.8883333, -87.7069444, A, http://metrarail.com/metra/en/home/maps_schedules/metra_system_map/up-w/station.KEDZIE.html
AURORA, Aurora, , 41.7608333, -88.3083333, H, http://metrarail.com/metra/en/home/maps_schedules/metra_system_map/bnsf/station.AURORA.html
ROUTE59, Route 59, , 41.7777778, -88.2086111, G, http://metrarail.com/metra/en/home/maps_schedules/metra_system_map/bnsf/station.ROUTE59.html
NAPERVILLE, Naperville, , 41.7797222, -88.1455556, F, http://metrarail.com/metra/en/home/maps_schedules/metra_system_map/bnsf/station.NAPERVILLE.html
LISLE, Lisle, , 41.7977778, -88.0719444, E, http://metrarail.com/metra/en/home/maps_schedules/metra_system_map/bnsf/station.LISLE.html
BELMONT, Belmont, , 41.7952778, -88.0380556, E, http://metrarail.com/metra/en/home/maps_schedules/metra_system_map/bnsf/station.BELMONT.html
MAINST-DG, Downers Grove, , 41.7952778, -88.0097222, E, http://metrarail.com/metra/en/home/maps_schedules/metra_system_map/bnsf/station.MAINST-DG.html
FAIRVIEWDG, Fairview Ave., , 41.7952778, -87.9936111, E, http://metrarail.com/metra/en/home/maps_schedules/metra_system_map/bnsf/station.FAIRVIEWDG.html
WESTMONT, Westmont, , 41.7955556, -87.9763889, D, http://metrarail.com/metra/en/home/maps_schedules/metra_system_map/bnsf/station.WESTMONT.html
CLARNDNHIL, Clarendon Hills, , 41.7969444, -87.9536111, D, http://metrarail.com/metra/en/home/maps_schedules/metra_system_map/bnsf/station.CLARNDNHIL.html
WHINSDALE, West Hinsdale, , 41.7988889, -87.9452778, D, http://metrarail.com/metra/en/home/maps_schedules/metra_system_map/bnsf/station.WHINSDALE.html
HINSDALE, Hinsdale, , 41.8027778, -87.9283333, D, http://metrarail.com/metra/en/home/maps_schedules/metra_system_map/bnsf/station.HINSDALE.html
HIGHLANDS, Highlands, , 41.8050000, -87.9183333, D, http://metrarail.com/metra/en/home/maps_schedules/metra_system_map/bnsf/station.HIGHLANDS.html
WESTSPRING, Western Springs, , 41.8088889, -87.9011111, D, http://metrarail.com/metra/en/home/maps_schedules/metra_system_map/bnsf/station.WESTSPRING.html
STONEAVE, Stone Ave., , 41.8141667, -87.8783333, C, http://metrarail.com/metra/en/home/maps_schedules/metra_system_map/bnsf/station.STONEAVE.html
LAGRANGE, LaGrange Road, , 41.8158333, -87.8711111, C, http://metrarail.com/metra/en/home/maps_schedules/metra_system_map/bnsf/station.LAGRANGE.html
CONGRESSPK, Congress Park, , 41.8188889, -87.8575000, C, http://metrarail.com/metra/en/home/maps_schedules/metra_system_map/bnsf/station.CONGRESSPK.html
BROOKFIELD, Brookfield, , 41.8219444, -87.8430556, C, http://metrarail.com/metra/en/home/maps_schedules/metra_system_map/bnsf/station.BROOKFIELD.html
HOLLYWOOD, Hollywood, , 41.8244444, -87.8338889, C, http://metrarail.com/metra/en/home/maps_schedules/metra_system_map/bnsf/station.HOLLYWOOD.html
RIVERSIDE, Riverside, , 41.8272222, -87.8200000, C, http://metrarail.com/metra/en/home/maps_schedules/metra_system_map/bnsf/station.RIVERSIDE.html
HARLEM, Harlem Ave., , 41.8313889, -87.8019444, B, http://metrarail.com/metra/en/home/maps_schedules/metra_system_map/bnsf/station.HARLEM.html
BERWYN, Berwyn, , 41.8330556, -87.7936111, B, http://metrarail.com/metra/en/home/maps_schedules/metra_system_map/bnsf/station.BERWYN.html
LAVERGNE, Lavergne, , 41.8355556, -87.7833333, B, http://metrarail.com/metra/en/home/maps_schedules/metra_system_map/bnsf/station.LAVERGNE.html
CICERO, Cicero, , 41.8441667, -87.7455556, B, http://metrarail.com/metra/en/home/maps_schedules/metra_system_map/bnsf/station.CICERO.html
BNWESTERN, Western Avenue, , 41.8577778, -87.6852778, A, http://metrarail.com/metra/en/home/maps_schedules/metra_system_map/bnsf/station.BNWESTERN.html
HALSTED, Halsted Street, , 41.8602778, -87.6472222, A, http://metrarail.com/metra/en/home/maps_schedules/metra_system_map/bnsf/station.HALSTED.html
JOLIET, Joliet, , 41.5244444, -88.0797222, H, http://metrarail.com/metra/en/home/maps_schedules/metra_system_map/ri/station.JOLIET.html
LOCKPORT, Lockport, , 41.5850000, -88.0602778, G, http://metrarail.com/metra/en/home/maps_schedules/metra_system_map/hc/station.LOCKPORT.html
LEMONT, Lemont, , 41.6736111, -88.0025000, E, http://metrarail.com/metra/en/home/maps_schedules/metra_system_map/hc/station.LEMONT.html
WILLOWSPRN, Willow Springs, , 41.7333333, -87.8783333, D, http://metrarail.com/metra/en/home/maps_schedules/metra_system_map/hc/station.WILLOWSPRN.html
SUMMIT, Summit, , 41.7950000, -87.8097222, C, http://metrarail.com/metra/en/home/maps_schedules/metra_system_map/hc/station.SUMMIT.html
179TH-SWS, Orland Park 179th, , 41.5638889, -87.9025000, F, http://metrarail.com/metra/en/home/maps_schedules/metra_system_map/sws/station.179TH-SWS.html
153RD-SWS, Orland Park 153rd, , 41.6094444, -87.8733333, E, http://metrarail.com/metra/en/home/maps_schedules/metra_system_map/sws/station.153RD-SWS.html
143RD-SWS, Orland Park 143rd, , 41.6305556, -87.8591667, E, http://metrarail.com/metra/en/home/maps_schedules/metra_system_map/sws/station.143RD-SWS.html
PALOSPARK, Palos Park, , 41.6688889, -87.8202778, E, http://metrarail.com/metra/en/home/maps_schedules/metra_system_map/sws/station.PALOSPARK.html
WORTH, Worth, , 41.6913889, -87.7958333, D, http://metrarail.com/metra/en/home/maps_schedules/metra_system_map/sws/station.WORTH.html
CHICRIDGE, Chicago Ridge, , 41.7033333, -87.7802778, D, http://metrarail.com/metra/en/home/maps_schedules/metra_system_map/sws/station.CHICRIDGE.html
OAKLAWN, Oak Lawn, , 41.7194444, -87.7486111, D, http://metrarail.com/metra/en/home/maps_schedules/metra_system_map/sws/station.OAKLAWN.html
ASHBURN, Ashburn, , 41.7416667, -87.7125000, C, http://metrarail.com/metra/en/home/maps_schedules/metra_system_map/sws/station.ASHBURN.html
WRIGHTWOOD, Wrightwood, , 41.7488889, -87.7036111, C, http://metrarail.com/metra/en/home/maps_schedules/metra_system_map/sws/station.WRIGHTWOOD.html
CLYBOURN, Clybourn, , 41.9169444, -87.6680556, A, http://metrarail.com/metra/en/home/maps_schedules/metra_system_map/up-n/station.CLYBOURN.html
RAVENSWOOD, Ravenswood, , 41.9683333, -87.6744444, B, http://metrarail.com/metra/en/home/maps_schedules/metra_system_map/up-n/station.RAVENSWOOD.html
ROGERPK, Rogers Park, , 42.0094444, -87.6755556, B, http://metrarail.com/metra/en/home/maps_schedules/metra_system_map/up-n/station.ROGERPK.html
MAINST, Main St., , 42.0333333, -87.6800000, C, http://metrarail.com/metra/en/home/maps_schedules/metra_system_map/up-n/station.MAINST.html
EVANSTON, Evanston (Davis St.), , 42.0480556, -87.6847222, C, http://metrarail.com/metra/en/home/maps_schedules/metra_system_map/up-n/station.EVANSTON.html
CENTRALST, Central St., , 42.0641667, -87.6980556, C, http://metrarail.com/metra/en/home/maps_schedules/metra_system_map/up-n/station.CENTRALST.html
WILMETTE, Wilmette, , 42.0772222, -87.7091667, C, http://metrarail.com/metra/en/home/maps_schedules/metra_system_map/up-n/station.WILMETTE.html
KENILWORTH, Kenilworth, , 42.0863889, -87.7166667, D, http://metrarail.com/metra/en/home/maps_schedules/metra_system_map/up-n/station.KENILWORTH.html
WINNETKA, Winnetka, , 42.1052778, -87.7327778, D, http://metrarail.com/metra/en/home/maps_schedules/metra_system_map/up-n/station.WINNETKA.html
HUBARDWOOD, Hubbard Woods, , 42.1180556, -87.7436111, D, http://metrarail.com/metra/en/home/maps_schedules/metra_system_map/up-n/station.HUBARDWOOD.html
GLENCOE, Glencoe, , 42.1355556, -87.7580556, D, http://metrarail.com/metra/en/home/maps_schedules/metra_system_map/up-n/station.GLENCOE.html
BRAESIDE, Braeside, , 42.1527778, -87.7725000, E, http://metrarail.com/metra/en/home/maps_schedules/metra_system_map/up-n/station.BRAESIDE.html
RAVINIA, Ravinia, , 42.1650000, -87.7827778, E, http://metrarail.com/metra/en/home/maps_schedules/metra_system_map/up-n/station.RAVINIA.html
HIGHLANDPK, Highland Park, , 42.1833333, -87.7975000, E, http://metrarail.com/metra/en/home/maps_schedules/metra_system_map/up-n/station.HIGHLANDPK.html
HIGHWOOD, Highwood, , 42.2033333, -87.8105556, E, http://metrarail.com/metra/en/home/maps_schedules/metra_system_map/up-n/station.HIGHWOOD.html
FTSHERIDAN, Fort Sheridan, , 42.2175000, -87.8208333, F, http://metrarail.com/metra/en/home/maps_schedules/metra_system_map/up-n/station.FTSHERIDAN.html
LKFOREST, Lake Forest., , 42.2525000, -87.8397222, F, http://metrarail.com/metra/en/home/maps_schedules/metra_system_map/up-n/station.LKFOREST.html
LAKEBLUFF, Lake Bluff, , 42.2797222, -87.8466667, G, http://metrarail.com/metra/en/home/maps_schedules/metra_system_map/up-n/station.LAKEBLUFF.html
GRTLAKES, Great Lakes, , 42.3069444, -87.8463889, G, http://metrarail.com/metra/en/home/maps_schedules/metra_system_map/up-n/station.GRTLAKES.html
NCHICAGO, North Chicago, , 42.3286111, -87.8369444, G, http://metrarail.com/metra/en/home/maps_schedules/metra_system_map/up-n/station.NCHICAGO.html
WAUKEGAN, Waukegan, , 42.3605556, -87.8283333, H, http://metrarail.com/metra/en/home/maps_schedules/metra_system_map/up-n/station.WAUKEGAN.html
ZION, Zion, , 42.4491667, -87.8180556, I, http://metrarail.com/metra/en/home/maps_schedules/metra_system_map/up-n/station.ZION.html
WINTHROP, Winthrop Harbor, , 42.4827778, -87.8161111, I, http://metrarail.com/metra/en/home/maps_schedules/metra_system_map/up-n/station.WINTHROP.html
FOXLAKE, Fox Lake, , 42.3983333, -88.1822222, J, http://metrarail.com/metra/en/home/maps_schedules/metra_system_map/md-n/station.FOXLAKE.html
INGLESIDE, Ingleside, , 42.3838889, -88.1536111, J, http://metrarail.com/metra/en/home/maps_schedules/metra_system_map/md-n/station.INGLESIDE.html
LONGLAKE, Long Lake, , 42.3680556, -88.1280556, J, http://metrarail.com/metra/en/home/maps_schedules/metra_system_map/md-n/station.LONGLAKE.html
ROUNDLAKE, Round Lake, , 42.3544444, -88.0941667, I, http://metrarail.com/metra/en/home/maps_schedules/metra_system_map/md-n/station.ROUNDLAKE.html
GRAYSLAKE, Grayslake, , 42.3336111, -88.0433333, I, http://metrarail.com/metra/en/home/maps_schedules/metra_system_map/md-n/station.GRAYSLAKE.html
LIBERTYVIL, Libertyville, , 42.2911111, -87.9563889, H, http://metrarail.com/metra/en/home/maps_schedules/metra_system_map/md-n/station.LIBERTYVIL.html
LAKEFRST, Lake Forest, , 42.2236111, -87.8747222, F, http://metrarail.com/metra/en/home/maps_schedules/metra_system_map/md-n/station.LAKEFRST.html
DEERFIELD, Deerfield, , 42.1680556, -87.8500000, E, http://metrarail.com/metra/en/home/maps_schedules/metra_system_map/md-n/station.DEERFIELD.html
LAKECOOKRD, Lake-Cook, , 42.1516667, -87.8413889, E, http://metrarail.com/metra/en/home/maps_schedules/metra_system_map/md-n/station.LAKECOOKRD.html
NBROOK, Northbrook, , 42.1269444, -87.8277778, E, http://metrarail.com/metra/en/home/maps_schedules/metra_system_map/md-n/station.NBROOK.html
NGLENVIEW, Glen/N. Glenview, , 42.0975000, -87.8158333, D, http://metrarail.com/metra/en/home/maps_schedules/metra_system_map/md-n/station.NGLENVIEW.html
GLENVIEW, Glenview, , 42.0750000, -87.8055556, D, http://metrarail.com/metra/en/home/maps_schedules/metra_system_map/md-n/station.GLENVIEW.html
GOLF, Golf, , 42.0583333, -87.7969444, D, http://metrarail.com/metra/en/home/maps_schedules/metra_system_map/md-n/station.GOLF.html
MORTONGRV, Morton Grove, , 42.0350000, -87.7852778, C, http://metrarail.com/metra/en/home/maps_schedules/metra_system_map/md-n/station.MORTONGRV.html
EDGEBROOK, Edgebrook, , 41.9977778, -87.7655556, C, http://metrarail.com/metra/en/home/maps_schedules/metra_system_map/md-n/station.EDGEBROOK.html
FORESTGLEN, Forest Glen, , 41.9780556, -87.7555556, C, http://metrarail.com/metra/en/home/maps_schedules/metra_system_map/md-n/station.FORESTGLEN.html
MAYFAIR, Mayfair, , 41.9597222, -87.7458333, B, http://metrarail.com/metra/en/home/maps_schedules/metra_system_map/md-n/station.MAYFAIR.html
GRAYLAND, Grayland, , 41.9488889, -87.7402778, B, http://metrarail.com/metra/en/home/maps_schedules/metra_system_map/md-n/station.GRAYLAND.html
HEALY, Healy, , 41.9247222, -87.7277778, B, http://metrarail.com/metra/en/home/maps_schedules/metra_system_map/md-n/station.HEALY.html
WESTERNAVE, Western Ave, , 41.8891667, -87.6880556, A, http://metrarail.com/metra/en/home/maps_schedules/metra_system_map/md-n/station.WESTERNAVE.html
RAVINIAPK, Ravinia Park, , 42.1580556, -87.7769444, E, http://metrarail.com/metra/en/home/maps_schedules/metra_system_map/up-n/station.RAVINIAPK.html
INDIANHILL, Indian Hill, , 42.0944444, -87.7238889, D, http://metrarail.com/metra/en/home/maps_schedules/metra_system_map/up-n/station.INDIANHILL.html
KENOSHA, Kenosha, , 42.5858333, -87.8258333, K, http://metrarail.com/metra/en/home/maps_schedules/metra_system_map/up-n/station.KENOSHA.html
HARVARD, Harvard, , 42.4197222, -88.6175000, M, http://metrarail.com/metra/en/home/maps_schedules/metra_system_map/up-nw/station.HARVARD.html
WOODSTOCK, Woodstock, , 42.3169444, -88.4475000, K, http://metrarail.com/metra/en/home/maps_schedules/metra_system_map/up-nw/station.WOODSTOCK.html
CRYSTAL, Crystal Lake, , 42.2441667, -88.3172222, I, http://metrarail.com/metra/en/home/maps_schedules/metra_system_map/up-nw/station.CRYSTAL.html
MCHENRY, McHenry, , 42.3433333, -88.2761111, K, http://metrarail.com/metra/en/home/maps_schedules/metra_system_map/up-nw/station.MCHENRY.html
CARY, Cary, , 42.2088889, -88.2413889, H, http://metrarail.com/metra/en/home/maps_schedules/metra_system_map/up-nw/station.CARY.html
FOXRG, Fox River Grove, , 42.1977778, -88.2194444, H, http://metrarail.com/metra/en/home/maps_schedules/metra_system_map/up-nw/station.FOXRG.html
BARRINGTON, Barrington, , 42.1527778, -88.1319444, G, http://metrarail.com/metra/en/home/maps_schedules/metra_system_map/up-nw/station.BARRINGTON.html
PALATINE, Palatine, , 42.1130556, -88.0483333, F, http://metrarail.com/metra/en/home/maps_schedules/metra_system_map/up-nw/station.PALATINE.html
ARLINGTNPK, Arlington Park, , 42.0952778, -88.0091667, E, http://metrarail.com/metra/en/home/maps_schedules/metra_system_map/up-nw/station.ARLINGTNPK.html
ARLINGTNHT, Arlington Heights, , 42.0841667, -87.9836111, E, http://metrarail.com/metra/en/home/maps_schedules/metra_system_map/up-nw/station.ARLINGTNHT.html
MTPROSPECT, Mt. Prospect, , 42.0630556, -87.9361111, D, http://metrarail.com/metra/en/home/maps_schedules/metra_system_map/up-nw/station.MTPROSPECT.html
CUMBERLAND, Cumberland, , 42.0525000, -87.9122222, D, http://metrarail.com/metra/en/home/maps_schedules/metra_system_map/up-nw/station.CUMBERLAND.html
DESPLAINES, Des Plaines, , 42.0408333, -87.8866667, D, http://metrarail.com/metra/en/home/maps_schedules/metra_system_map/up-nw/station.DESPLAINES.html
DEEROAD, Dee Road, , 42.0241667, -87.8561111, C, http://metrarail.com/metra/en/home/maps_schedules/metra_system_map/up-nw/station.DEEROAD.html
PARKRIDGE, Park Ridge, , 42.0102778, -87.8316667, C, http://metrarail.com/metra/en/home/maps_schedules/metra_system_map/up-nw/station.PARKRIDGE.html
IRVINGPK, Irving Park, , 41.9525000, -87.7297222, B, http://metrarail.com/metra/en/home/maps_schedules/metra_system_map/up-nw/station.IRVINGPK.html
BIGTIMBER, Big Timber, , 42.0586111, -88.3277778, H, http://metrarail.com/metra/en/home/maps_schedules/metra_system_map/md-w/station.BIGTIMBER.html
ELGIN, Elgin, , 42.0361111, -88.2861111, H, http://metrarail.com/metra/en/home/maps_schedules/metra_system_map/md-w/station.ELGIN.html
NATIONALS, National St, , 42.0263889, -88.2788889, H, http://metrarail.com/metra/en/home/maps_schedules/metra_system_map/md-w/station.NATIONALS.html
HANOVERP, Hanover Park, , 41.9880556, -88.1491667, F, http://metrarail.com/metra/en/home/maps_schedules/metra_system_map/md-w/station.HANOVERP.html
SCHAUM, Schaumburg, , 41.9891667, -88.1180556, F, http://metrarail.com/metra/en/home/maps_schedules/metra_system_map/md-w/station.SCHAUM.html
ROSELLE, Roselle, , 41.9813889, -88.0672222, E, http://metrarail.com/metra/en/home/maps_schedules/metra_system_map/md-w/station.ROSELLE.html
MEDINAH, Medinah, , 41.9780556, -88.0508333, E, http://metrarail.com/metra/en/home/maps_schedules/metra_system_map/md-w/station.MEDINAH.html
ITASCA, Itasca, , 41.9713889, -88.0141667, E, http://metrarail.com/metra/en/home/maps_schedules/metra_system_map/md-w/station.ITASCA.html
WOODDALE, Wood Dale, , 41.9625000, -87.9752778, D, http://metrarail.com/metra/en/home/maps_schedules/metra_system_map/md-w/station.WOODDALE.html
BENSENVIL, Bensenville, , 41.9569444, -87.9419444, D, http://metrarail.com/metra/en/home/maps_schedules/metra_system_map/md-w/station.BENSENVIL.html
MANNHEIM, Mannheim, , 41.9416667, -87.8833333, C, http://metrarail.com/metra/en/home/maps_schedules/metra_system_map/md-w/station.MANNHEIM.html
FRANKLIN, Franklin Park, , 41.9366667, -87.8663889, C, http://metrarail.com/metra/en/home/maps_schedules/metra_system_map/md-w/station.FRANKLIN.html
MONTCLARE, Mont Clare, , 41.9216667, -87.8016667, B, http://metrarail.com/metra/en/home/maps_schedules/metra_system_map/md-w/station.MONTCLARE.html
MARS, Mars, , 41.9191667, -87.7944444, B, http://metrarail.com/metra/en/home/maps_schedules/metra_system_map/md-w/station.MARS.html
GALEWOOD, Galewood, , 41.9163889, -87.7858333, B, http://metrarail.com/metra/en/home/maps_schedules/metra_system_map/md-w/station.GALEWOOD.html
HANSONPK, Hanson Park, , 41.9166667, -87.7669444, B, http://metrarail.com/metra/en/home/maps_schedules/metra_system_map/md-w/station.HANSONPK.html
GRAND/CIC, Grand/Cicero, , 41.9144444, -87.7461111, B, http://metrarail.com/metra/en/home/maps_schedules/metra_system_map/md-w/station.GRAND-CIC.html
O'HARE, O'Hare Transfer, , 41.9950000, -87.8805556, D, http://metrarail.com/metra/en/home/maps_schedules/metra_system_map/ncs/station.OHARE.html
PROSPECTHG, Prospect Hts, , 42.0922222, -87.9080556, E, http://metrarail.com/metra/en/home/maps_schedules/metra_system_map/ncs/station.PROSPECTHG.html
WHEELING, Wheeling, , 42.1363889, -87.9272222, F, http://metrarail.com/metra/en/home/maps_schedules/metra_system_map/ncs/station.WHEELING.html
BUFFGROVE, Buffalo Grove, , 42.1686111, -87.9413889, F, http://metrarail.com/metra/en/home/maps_schedules/metra_system_map/ncs/station.BUFFGROVE.html
PRAIRIEVW, Prairie View, , 42.1980556, -87.9558333, G, http://metrarail.com/metra/en/home/maps_schedules/metra_system_map/ncs/station.PRAIRIEVW.html
VERNON, Vernon Hills, , 42.2155556, -87.9644444, G, http://metrarail.com/metra/en/home/maps_schedules/metra_system_map/ncs/station.VERNON.html
MUNDELEIN, Mundelein, , 42.2669444, -87.9980556, H, http://metrarail.com/metra/en/home/maps_schedules/metra_system_map/ncs/station.MUNDELEIN.html
PRAIRCROSS, Prairie Crossing., , 42.3180556, -88.0172222, H, http://metrarail.com/metra/en/home/maps_schedules/metra_system_map/md-n/station.PRAIRIEXNG.html
ROUNDLKBCH, Round Lake Beach, , 42.3850000, -88.0655556, J, http://metrarail.com/metra/en/home/maps_schedules/metra_system_map/ncs/station.ROUNDLKBCH.html
LAKEVILLA, Lake Villa, , 42.4175000, -88.0794444, J, http://metrarail.com/metra/en/home/maps_schedules/metra_system_map/ncs/station.LAKEVILLA.html
ANTIOCH, Antioch, , 42.4811111, -88.0925000, K, http://metrarail.com/metra/en/home/maps_schedules/metra_system_map/ncs/station.ANTIOCH.html
NEWLENOX, New Lenox, , 41.5144444, -87.9652778, G, http://metrarail.com/metra/en/home/maps_schedules/metra_system_map/ri/station.NEWLENOX.html
MOKENA, Mokena, , 41.5308333, -87.8866667, F, http://metrarail.com/metra/en/home/maps_schedules/metra_system_map/ri/station.MOKENA.html
HICKORYCRK, Hickory Creek, , 41.5486111, -87.8455556, F, http://metrarail.com/metra/en/home/maps_schedules/metra_system_map/ri/station.HICKORYCRK.html
TINLEY80TH, Tinley-80th, , 41.5644444, -87.8094444, E, http://metrarail.com/metra/en/home/maps_schedules/metra_system_map/ri/station.TINLEY80TH.html
TINLEYPARK, Tinley Park, , 41.5758333, -87.7827778, E, http://metrarail.com/metra/en/home/maps_schedules/metra_system_map/ri/station.TINLEYPARK.html
OAKFOREST, Oak Forest, , 41.6044444, -87.7383333, E, http://metrarail.com/metra/en/home/maps_schedules/metra_system_map/ri/station.OAKFOREST.html
MIDLOTHIAN, Midlothian, , 41.6263889, -87.7116667, D, http://metrarail.com/metra/en/home/maps_schedules/metra_system_map/ri/station.MIDLOTHIAN.html
ROBBINS, Robbins, , 41.6408333, -87.6944444, D, http://metrarail.com/metra/en/home/maps_schedules/metra_system_map/ri/station.ROBBINS.html
KENSINGTN, Kensington, , 41.6858333, -87.6122222, C, http://metrarail.com/metra/en/home/maps_schedules/metra_system_map/me/station.KENSINGTN.html
59TH-UP, 59th St. (U. of Chicago), , 41.7880556, -87.5886111, B, http://metrarail.com/metra/en/home/maps_schedules/metra_system_map/me/station.59TH-UP.html
UNIVERSITY, University Park, , 41.4594444, -87.7233333, G, http://metrarail.com/metra/en/home/maps_schedules/metra_system_map/me/station.UNIVERSITY.html
RICHTON, Richton Park, , 41.4855556, -87.7094444, F, http://metrarail.com/metra/en/home/maps_schedules/metra_system_map/me/station.RICHTON.html
MATTESON, Matteson, , 41.4986111, -87.7022222, F, http://metrarail.com/metra/en/home/maps_schedules/metra_system_map/me/station.MATTESON.html
211TH-UP, 211th St., , 41.5061111, -87.6983333, F, http://metrarail.com/metra/en/home/maps_schedules/metra_system_map/me/station.211TH-UP.html
OLYMPIA, Olympia Fields, , 41.5213889, -87.6900000, F, http://metrarail.com/metra/en/home/maps_schedules/metra_system_map/me/station.OLYMPIA.html
FLOSSMOOR, Flossmoor, , 41.5430556, -87.6786111, E, http://metrarail.com/metra/en/home/maps_schedules/metra_system_map/me/station.FLOSSMOOR.html
HOMEWOOD, Homewood, , 41.5622222, -87.6686111, E, http://metrarail.com/metra/en/home/maps_schedules/metra_system_map/me/station.HOMEWOOD.html
CALUMET, Calumet, , 41.5736111, -87.6625000, E, http://metrarail.com/metra/en/home/maps_schedules/metra_system_map/me/station.CALUMET.html
EDISONPK, Edison Park, , 42.0022222, -87.8175000, C, http://metrarail.com/metra/en/home/maps_schedules/metra_system_map/up-nw/station.EDISONPK.html
NORWOODP, Norwood Park, , 41.9916667, -87.7988889, C, http://metrarail.com/metra/en/home/maps_schedules/metra_system_map/up-nw/station.NORWOODP.html
GLADSTONEP, Gladstone Park, , 41.9797222, -87.7780556, B, http://metrarail.com/metra/en/home/maps_schedules/metra_system_map/up-nw/station.GLADSTONEP.html
JEFFERSONP, Jefferson Park, , 41.9713889, -87.7633333, B, http://metrarail.com/metra/en/home/maps_schedules/metra_system_map/up-nw/station.JEFFERSONP.html
BARTLETT, Bartlett, , 41.9922222, -88.1838889, F, http://metrarail.com/metra/en/home/maps_schedules/metra_system_map/md-w/station.BARTLETT.html
47TH-UP, 47th St. (Kenwood), , 41.8097222, -87.5913889, B, http://metrarail.com/metra/en/home/maps_schedules/metra_system_map/me/station.47TH-UP.html
51ST/53RD, 51st/53rd St. (Hyde Park), , 41.8000000, -87.5869444, B, http://metrarail.com/metra/en/home/maps_schedules/metra_system_map/me/station.51ST-53RD.html
55-56-57TH, 55th - 56th - 57th St., , 41.7933333, -87.5875000, B, http://metrarail.com/metra/en/home/maps_schedules/metra_system_map/me/station.55-56-57TH.html
63RD-UP, 63rd St., , 41.7802778, -87.5905556, B, http://metrarail.com/metra/en/home/maps_schedules/metra_system_map/me/station.63RD-UP.html
PRAIRIEXNG, Prairie Crossing, , 42.3208333, -88.0152778, H, http://metrarail.com/metra/en/home/maps_schedules/metra_system_map/md-n/station.PRAIRIEXNG.html
RIVERGROVE, River Grove, , 41.9311111, -87.8361111, C, http://metrarail.com/metra/en/home/maps_schedules/metra_system_map/ncs/station.RIVERGROVE.html
ELMWOODPK, Elmwood Park, , 41.9247222, -87.8147222, C, http://metrarail.com/metra/en/home/maps_schedules/metra_system_map/md-w/station.ELMWOODPK.html
RIVERDALE, Riverdale, , 41.6466667, -87.6233333, D, http://metrarail.com/metra/en/home/maps_schedules/metra_system_map/me/station.RIVERDALE.html
IVANHOE, Ivanhoe, , 41.6333333, -87.6302778, D, http://metrarail.com/metra/en/home/maps_schedules/metra_system_map/me/station.IVANHOE.html
147TH-UP, 147th St., , 41.6227778, -87.6361111, D, http://metrarail.com/metra/en/home/maps_schedules/metra_system_map/me/station.147TH-UP.html
HARVEY, Harvey, , 41.6083333, -87.6438889, D, http://metrarail.com/metra/en/home/maps_schedules/metra_system_map/me/station.HARVEY.html
HAZELCREST, Hazel Crest, , 41.5808333, -87.6586111, E, http://metrarail.com/metra/en/home/maps_schedules/metra_system_map/me/station.HAZELCREST.html
RANDOLPH, Randolph St., , 41.8841667, -87.6230556, A, http://metrarail.com/metra/en/home/maps_schedules/metra_system_map/me/station.RANDOLPH.html
VANBUREN, Van Buren St., , 41.8769444, -87.6230556, A, http://metrarail.com/metra/en/home/maps_schedules/metra_system_map/me/station.VANBUREN.html
MUSEUM, Museum Campus/11th St., , 41.8686111, -87.6213889, A, http://metrarail.com/metra/en/home/maps_schedules/metra_system_map/me/station.MUSEUM.html
18TH-UP, 18th St., , 41.8583333, -87.6180556, A, http://metrarail.com/metra/en/home/maps_schedules/metra_system_map/me/station.18TH-UP.html
MCCORMICK, McCormick Place, , 41.8513889, -87.6163889, A, http://metrarail.com/metra/en/home/maps_schedules/metra_system_map/me/station.MCCORMICK.html
27TH-UP, 27th St., , 41.8441667, -87.6133333, A, http://metrarail.com/metra/en/home/maps_schedules/metra_system_map/me/station.27TH-UP.html
75TH-UP, 75th St. (Grand Crossing), , 41.7588889, -87.5952778, B, http://metrarail.com/metra/en/home/maps_schedules/metra_system_map/me/station.75TH-UP.html
79TH-UP, 79th St. (Chatham), , 41.7508333, -87.5972222, B, http://metrarail.com/metra/en/home/maps_schedules/metra_system_map/me/station.79TH-UP.html
83RD-UP, 83rd St. (Avalon Park), , 41.7441667, -87.5986111, C, http://metrarail.com/metra/en/home/maps_schedules/metra_system_map/me/station.83RD-UP.html
87TH-UP, 87th St. (Woodruff), , 41.7369444, -87.6002778, C, http://metrarail.com/metra/en/home/maps_schedules/metra_system_map/me/station.87TH-UP.html
91ST-UP, 91st St., , 41.7294444, -87.6019444, C, http://metrarail.com/metra/en/home/maps_schedules/metra_system_map/me/station.91ST-UP.html
95TH-UP, 95th St., , 41.7219444, -87.6038889, C, http://metrarail.com/metra/en/home/maps_schedules/metra_system_map/me/station.95TH-UP.html
103RD-UP, 103rd St. (Rosemoor), , 41.7069444, -87.6072222, C, http://metrarail.com/metra/en/home/maps_schedules/metra_system_map/me/station.103RD-UP.html
107TH-UP, 107th St., , 41.6997222, -87.6088889, C, http://metrarail.com/metra/en/home/maps_schedules/metra_system_map/me/station.107TH-UP.html
111TH-UP, 111th St. (Pullman), , 41.6927778, -87.6105556, C, http://metrarail.com/metra/en/home/maps_schedules/metra_system_map/me/station.111TH-UP.html
STONYISLND, Stony Island, , 41.7661111, -87.5869444, B, http://metrarail.com/metra/en/home/maps_schedules/metra_system_map/me/station.STONYISLND.html
BRYNMAWR, Bryn Mawr, , 41.7661111, -87.5766667, B, http://metrarail.com/metra/en/home/maps_schedules/metra_system_map/me/station.BRYNMAWR.html
SOUTHSHORE, South Shore, , 41.7652778, -87.5658333, B, http://metrarail.com/metra/en/home/maps_schedules/metra_system_map/me/station.SOUTHSHORE.html
WINDSORPK, Windsor Park, , 41.7586111, -87.5594444, B, http://metrarail.com/metra/en/home/maps_schedules/metra_system_map/me/station.WINDSORPK.html
79TH-SC, Cheltenham (79th St.), , 41.7522222, -87.5525000, B, http://metrarail.com/metra/en/home/maps_schedules/metra_system_map/me/station.79TH-SC.html
83RD-SC, 83rd St., , 41.7450000, -87.5516667, B, http://metrarail.com/metra/en/home/maps_schedules/metra_system_map/me/station.83RD-SC.html
87TH-SC, 87th St., , 41.7377778, -87.5483333, B, http://metrarail.com/metra/en/home/maps_schedules/metra_system_map/me/station.87TH-SC.html
93RD-SC, South Chicago (93rd), , 41.7266667, -87.5477778, B, http://metrarail.com/metra/en/home/maps_schedules/metra_system_map/me/station.93RD-SC.html
LSS, LaSalle Street, , 41.8763889, -87.6322222, A, http://metrarail.com/metra/en/home/maps_schedules/metra_system_map/ri/station.LSS.html
GRESHAM, Gresham, , 41.7363889, -87.6447222, B, http://metrarail.com/metra/en/home/maps_schedules/metra_system_map/ri/station.GRESHAM.html
VERMONT, Blue Island-Vermont, , 41.6547222, -87.6777778, D, http://metrarail.com/metra/en/home/maps_schedules/metra_system_map/ri/station.VERMONT.html
LONGWOOD, 95th St.-Longwood, , 41.7211111, -87.6502778, C, http://metrarail.com/metra/en/home/maps_schedules/metra_system_map/ri/station.LONGWOOD.html
WASHHGTS, 103rd St.-Washington Hts., , 41.7055556, -87.6558333, C, http://metrarail.com/metra/en/home/maps_schedules/metra_system_map/ri/station.WASHHGTS.html
BRAINERD, Brainerd, , 41.7322222, -87.6588889, C, http://metrarail.com/metra/en/home/maps_schedules/metra_system_map/ri/station.BRAINERD.html
91ST-BEV, 91st St. - Beverly Hills, , 41.7280556, -87.6672222, C, http://metrarail.com/metra/en/home/maps_schedules/metra_system_map/ri/station.91ST-BEV.html
PRAIRIEST, Prairie St., , 41.6625000, -87.6750000, D, http://metrarail.com/metra/en/home/maps_schedules/metra_system_map/ri/station.PRAIRIEST.html
123RD-BEV, 123rd St., , 41.6700000, -87.6736111, D, http://metrarail.com/metra/en/home/maps_schedules/metra_system_map/ri/station.123RD-BEV.html
119TH-BEV, 119th St., , 41.6763889, -87.6725000, C, http://metrarail.com/metra/en/home/maps_schedules/metra_system_map/ri/station.119TH-BEV.html
115TH-BEV, 115th St. - Morgan Park, , 41.6850000, -87.6716667, C, http://metrarail.com/metra/en/home/maps_schedules/metra_system_map/ri/station.115TH-BEV.html
111TH-BEV, 111th St. - Morgan Park, , 41.6927778, -87.6705556, C, http://metrarail.com/metra/en/home/maps_schedules/metra_system_map/ri/station.111TH-BEV.html
107TH-BEV, 107th St. - Beverly Hills, , 41.6988889, -87.6700000, C, http://metrarail.com/metra/en/home/maps_schedules/metra_system_map/ri/station.1O7TH-BEV.html
103RD-BEV, 103rd St. - Beverly Hills, , 41.7061111, -87.6688889, C, http://metrarail.com/metra/en/home/maps_schedules/metra_system_map/ri/station.103RD-BEV.html
99TH-BEV, 99th St. - Beverly Hills, , 41.7136111, -87.6675000, C, http://metrarail.com/metra/en/home/maps_schedules/metra_system_map/ri/station.99TH-BEV.html
95TH-BEV, 95th St. - Beverly Hills, , 41.7213889, -87.6672222, C, http://metrarail.com/metra/en/home/maps_schedules/metra_system_map/ri/station.95TH-BEV.html
BLUEISLAND, Blue Island, , 41.6561111, -87.6758333, D, http://metrarail.com/metra/en/home/maps_schedules/metra_system_map/me/station.BLUEISLAND.html
BURROAK, Burr Oak, , 41.6622222, -87.6688889, D, http://metrarail.com/metra/en/home/maps_schedules/metra_system_map/me/station.BURROAK.html
ASHLAND, Ashland, , 41.6694444, -87.6605556, D, http://metrarail.com/metra/en/home/maps_schedules/metra_system_map/me/station.ASHLAND.html
RACINE, Racine, , 41.6741667, -87.6519444, D, http://metrarail.com/metra/en/home/maps_schedules/metra_system_map/me/station.RACINE.html
WPULLMAN, West Pullman, , 41.6741667, -87.6422222, D, http://metrarail.com/metra/en/home/maps_schedules/metra_system_map/me/station.WPULLMAN.html
STEWARTRID, Stewart Ridge, , 41.6744444, -87.6316667, D, http://metrarail.com/metra/en/home/maps_schedules/metra_system_map/me/station.STEWARTRID.html
STATEST, State St., , 41.6744444, -87.6219444, D, http://metrarail.com/metra/en/home/maps_schedules/metra_system_map/me/station.STATEST.html
SCHILLERPK, Schiller Park, , 41.9627778, -87.8705556, C, http://metrarail.com/metra/en/home/maps_schedules/metra_system_map/ncs/station.SCHILLERPK.html
PALOSHTS, Palos Heights, , 41.6819444, -87.8069444, D, http://metrarail.com/metra/en/home/maps_schedules/metra_system_map/sws/station.PALOSHTS.html
PINGREE, Pingree Road, , 42.2341667, -88.2980556, I, http://metrarail.com/metra/en/home/maps_schedules/metra_system_map/up-nw/station.PINGREE.html
CUS, Chicago Union Station, , 41.8788889, -87.6388889, A, http://metrarail.com/metra/en/home/maps_schedules/metra_system_map.html
OTC, Chicago OTC, , 41.8822222, -87.6405556, A, http://metrarail.com/metra/en/home/maps_schedules/metra_system_map.html
LARAWAY, Laraway Road, , 41.4847222, -87.9597222, H, http://metrarail.com/metra/en/home/maps_schedules/metra_system_map/sws/station.LARAWAY.html
MANHATTAN, Manhattan, , 41.4183333, -87.9891667, I, http://metrarail.com/metra/en/home/maps_schedules/metra_system_map/sws/station.MANHATTAN.html
GRAYSLAKE., Washington St (Grayslake), , 42.3591667, -88.0505556, I, http://metrarail.com/metra/en/home/maps_schedules/metra_system_map/ncs/station.GRAYSLK-WASH.html
ROSEMONT, Rosemont, , 41.9761111, -87.8738889, D, http://metrarail.com/metra/en/home/maps_schedules/metra_system_map/ncs/station.ROSEMONT.html
FRANKLINPK, Franklin Pk, , 41.9377778, -87.8600000, C, http://metrarail.com/metra/en/home/maps_schedules/metra_system_map/ncs/station.FRANKLINPK.html
LAFOX, La Fox, , 41.8866667, -88.4122222, I, http://metrarail.com/metra/en/home/maps_schedules/metra_system_map/up-w/station.LAFOX.html
ELBURN, Elburn, , 41.8905556, -88.4638889, I, http://metrarail.com/metra/en/home/maps_schedules/metra_system_map/up-w/station.ELBURN.html
35TH, 35th St. / Lou Jones, , 41.8313889, -87.6291667, A, http://metrarail.com/metra/en/home/maps_schedules/metra_system_map/ri/station.35TH.html
